{
"type": "FeatureCollection",
"name": "Effluent",
"crs": { "type": "name", "properties": { "name": "urn:ogc:def:crs:OGC:1.3:CRS84" } },
"features": [
{ "type": "Feature", "properties": { "location_i": 3070, "location_1": "USGS-393754106311700", "location_n": "AVON WASTEWATER TREATMENT PLANT PIPE", "loc_lat": 39.63166667, "loc_long": -106.5213889, "huc12": 14010003, "loc_type": "Effluent", "basin_ndx": 5 }, "geometry": { "type": "Point", "coordinates": [ -106.521388900177556, 39.631666669880985 ] } },
{ "type": "Feature", "properties": { "location_i": 3115, "location_1": "USGS-393909106372500", "location_n": "EDWARDS WASTEWATER TREATMENT PLANT PIPE", "loc_lat": 39.6525, "loc_long": -106.6236111, "huc12": 14010003, "loc_type": "Effluent", "basin_ndx": 5 }, "geometry": { "type": "Point", "coordinates": [ -106.623611099572543, 39.652500000174939 ] } },
{ "type": "Feature", "properties": { "location_i": 3045, "location_1": "USGS-393028106224000", "location_n": "RED CLIFF WASTEWATER TREATMENT PLANT PIPE", "loc_lat": 39.50777778, "loc_long": -106.3777778, "huc12": 14010003, "loc_type": "Effluent", "basin_ndx": 5 }, "geometry": { "type": "Point", "coordinates": [ -106.377777800305182, 39.507777779820742 ] } },
{ "type": "Feature", "properties": { "location_i": 2651, "location_1": "21COL001_WQX-CO0000001-EFF", "location_n": "CO0000001 Aspen Park MD-Effluent", "loc_lat": 39.544, "loc_long": -105.286, "huc12": 10190002, "loc_type": "Municipal Sewage", "basin_ndx": 9 }, "geometry": { "type": "Point", "coordinates": [ -105.286, 39.543999999600373 ] } },
{ "type": "Feature", "properties": { "location_i": 2659, "location_1": "21COL001_WQX-CO0020915-EFF", "location_n": "CO0020915 West Jefferson County MD WWTF Effluent Discharge", "loc_lat": 39.662792, "loc_long": -105.335172, "huc12": 10190002, "loc_type": "Municipal Sewage", "basin_ndx": 9 }, "geometry": { "type": "Point", "coordinates": [ -105.335172000387445, 39.662791999950912 ] } },
{ "type": "Feature", "properties": { "location_i": 2661, "location_1": "21COL001_WQX-CO0021369-EFF", "location_n": "CO0021369 Eagle River WSD Effluent", "loc_lat": 39.640983, "loc_long": -106.3944, "huc12": 14010003, "loc_type": "Municipal Sewage", "basin_ndx": 5 }, "geometry": { "type": "Point", "coordinates": [ -106.394400000259793, 39.640982999665766 ] } },
{ "type": "Feature", "properties": { "location_i": 2663, "location_1": "21COL001_WQX-CO0021385-EFF", "location_n": "CO0021385 Town of Red Cliff WWTF Effluent Discharge", "loc_lat": 39.507339, "loc_long": -106.378306, "huc12": 14010003, "loc_type": "Municipal Sewage", "basin_ndx": 5 }, "geometry": { "type": "Point", "coordinates": [ -106.378306000021837, 39.507338999695151 ] } },
{ "type": "Feature", "properties": { "location_i": 2668, "location_1": "21COL001_WQX-CO0022551-EFF", "location_n": "CO0022551 Perry Park WSD Disch.P.", "loc_lat": 39.266667, "loc_long": -104.900833, "huc12": 10190002, "loc_type": "Municipal Sewage", "basin_ndx": 9 }, "geometry": { "type": "Point", "coordinates": [ -104.90083300044256, 39.266666999582412 ] } },
{ "type": "Feature", "properties": { "location_i": 2669, "location_1": "21COL001_WQX-CO0022951-EFF", "location_n": "CO0022951 Genesse WSD WWTF Effluent Discharge", "loc_lat": 39.676111, "loc_long": -105.273889, "huc12": 10190002, "loc_type": "Municipal Sewage", "basin_ndx": 9 }, "geometry": { "type": "Point", "coordinates": [ -105.273888999977316, 39.676110999922741 ] } },
{ "type": "Feature", "properties": { "location_i": 2670, "location_1": "21COL001_WQX-CO0023841-EFF", "location_n": "CO0023841 Kittredge WSD WWTF Effluent Discharge", "loc_lat": 39.657708, "loc_long": -105.287511, "huc12": 10190002, "loc_type": "Municipal Sewage", "basin_ndx": 9 }, "geometry": { "type": "Point", "coordinates": [ -105.287511000432289, 39.65770800022409 ] } },
{ "type": "Feature", "properties": { "location_i": 2675, "location_1": "21COL001_WQX-CO0027961-EFF", "location_n": "CO0027961 Town of Georgetown WWTF Effluent", "loc_lat": 39.4403, "loc_long": -105.412, "huc12": 10190002, "loc_type": "Municipal Sewage", "basin_ndx": 9 }, "geometry": { "type": "Point", "coordinates": [ -105.412, 39.440300000044999 ] } },
{ "type": "Feature", "properties": { "location_i": 2682, "location_1": "21COL001_WQX-CO0037044-EFF", "location_n": "CO0037044 Forest Hills Metro District WWTF Effluent Discharge", "loc_lat": 39.7025, "loc_long": -105.251944, "huc12": 10190002, "loc_type": "Municipal Sewage", "basin_ndx": 9 }, "geometry": { "type": "Point", "coordinates": [ -105.251943999715763, 39.70250000007502 ] } },
{ "type": "Feature", "properties": { "location_i": 2690, "location_1": "21COL001_WQX-CO0041521-EFF", "location_n": "CO0041521 Will-O-Wisp Metro District WWTF Effluent", "loc_lat": 39.4493, "loc_long": -105.4108, "huc12": 10190002, "loc_type": "Municipal Sewage", "basin_ndx": 9 }, "geometry": { "type": "Point", "coordinates": [ -105.41080000041967, 39.449299999595382 ] } },
{ "type": "Feature", "properties": { "location_i": 2691, "location_1": "21COL001_WQX-CO0041645-EFF", "location_n": "CO0041645 Roxborough WSD WWTF Effluent Discharge", "loc_lat": 39.485556, "loc_long": -105.096389, "huc12": 10190002, "loc_type": "Municipal Sewage", "basin_ndx": 9 }, "geometry": { "type": "Point", "coordinates": [ -105.096389000152215, 39.485555999709675 ] } },
{ "type": "Feature", "properties": { "location_i": 2692, "location_1": "21COL001_WQX-CO0043044-EFF", "location_n": "CO0043044 Perry Park WSD Sage Port WWTF Effluent", "loc_lat": 39.26417, "loc_long": -104.900833, "huc12": 10190002, "loc_type": "Municipal Sewage", "basin_ndx": 9 }, "geometry": { "type": "Point", "coordinates": [ -104.90083300044256, 39.264170000445233 ] } },
{ "type": "Feature", "properties": { "location_i": 2693, "location_1": "21COL001_WQX-CO0043214-EFF", "location_n": "CO0043214 City of Woodland Park WWTF Effluent", "loc_lat": 39.031633, "loc_long": -105.081767, "huc12": 10190002, "loc_type": "Municipal Sewage", "basin_ndx": 9 }, "geometry": { "type": "Point", "coordinates": [ -105.081767000346758, 39.031632999563328 ] } },
{ "type": "Feature", "properties": { "location_i": 2694, "location_1": "21COL001_WQX-CO0044211-EFF", "location_n": "CO0044211 Teller County Wastewater Effluent", "loc_lat": 38.956, "loc_long": -105.134, "huc12": 10190002, "loc_type": "Municipal Sewage", "basin_ndx": 9 }, "geometry": { "type": "Point", "coordinates": [ -105.133999999800096, 38.956000000199879 ] } },
{ "type": "Feature", "properties": { "location_i": 2696, "location_1": "21COL001_WQX-CO0045420-EFF", "location_n": "CO0045420 Iowa Hill WRF Effluent", "loc_lat": 39.503611, "loc_long": -106.048333, "huc12": 14010002, "loc_type": "Municipal Sewage", "basin_ndx": 12 }, "geometry": { "type": "Point", "coordinates": [ -106.048332999768093, 39.503611000447393 ] } },
{ "type": "Feature", "properties": { "location_i": 2697, "location_1": "21COL001_WQX-CO0047988-EFF", "location_n": "CO0047988 Conifer High School WWTP Effluent", "loc_lat": 39.527692, "loc_long": -105.310833, "huc12": 10190002, "loc_type": "Municipal Sewage", "basin_ndx": 9 }, "geometry": { "type": "Point", "coordinates": [ -105.310833000342654, 39.52769200028564 ] } },
{ "type": "Feature", "properties": { "location_i": 2699, "location_1": "21COL001_WQX-CO0048241-EFF", "location_n": "CO0048241 Eagle WWTF Effluent", "loc_lat": 39.64833, "loc_long": -106.844157, "huc12": 14010003, "loc_type": "Municipal Sewage", "basin_ndx": 5 }, "geometry": { "type": "Point", "coordinates": [ -106.844156999845609, 39.648330000329281 ] } },
{ "type": "Feature", "properties": { "location_i": 2705, "location_1": "21COL001_WQX-COG588050-EFF", "location_n": "COG588050 Town of Carbondale WWTF Effluent", "loc_lat": 39.414638, "loc_long": -107.22471, "huc12": 14010004, "loc_type": "Municipal Sewage", "basin_ndx": 11 }, "geometry": { "type": "Point", "coordinates": [ -107.224709999766617, 39.414638000143668 ] } },
{ "type": "Feature", "properties": { "location_i": 2708, "location_1": "21COL001_WQX-COG588063-EFF", "location_n": "COG588063 Basalt San Dist WWTF Effluent", "loc_lat": 39.367556, "loc_long": -107.046889, "huc12": 14010004, "loc_type": "Municipal Sewage", "basin_ndx": 11 }, "geometry": { "type": "Point", "coordinates": [ -107.046889000426972, 39.367555999909541 ] } },
{ "type": "Feature", "properties": { "location_i": 2710, "location_1": "21COL001_WQX-COG588067-EFF", "location_n": "COG588067 Grizzly Creek Rest Area WWTF Effluent", "loc_lat": 39.561139, "loc_long": -107.253361, "huc12": 14010001, "loc_type": "Municipal Sewage", "basin_ndx": 3 }, "geometry": { "type": "Point", "coordinates": [ -107.253360999910171, 39.561139000364619 ] } },
{ "type": "Feature", "properties": { "location_i": 2711, "location_1": "21COL001_WQX-COG588070-EFF", "location_n": "COG588070 Two Rivers Metro District Effluent", "loc_lat": 39.6444, "loc_long": -107.0739, "huc12": 14010001, "loc_type": "Municipal Sewage", "basin_ndx": 3 }, "geometry": { "type": "Point", "coordinates": [ -107.073899999585251, 39.644399999860184 ] } },
{ "type": "Feature", "properties": { "location_i": 2713, "location_1": "21COL001_WQX-COG588075-EFF", "location_n": "COG588075 Bair Ranch Rest Area WWTF Effluent", "loc_lat": 39.615056, "loc_long": -107.137806, "huc12": 14010001, "loc_type": "Municipal Sewage", "basin_ndx": 3 }, "geometry": { "type": "Point", "coordinates": [ -107.137806000446517, 39.615056000134359 ] } },
{ "type": "Feature", "properties": { "location_i": 2714, "location_1": "21COL001_WQX-COG588076-EFF", "location_n": "COG588076 Hanging Lake Rest Area WWTF Effluent", "loc_lat": 39.590167, "loc_long": -107.188833, "huc12": 14010001, "loc_type": "Municipal Sewage", "basin_ndx": 3 }, "geometry": { "type": "Point", "coordinates": [ -107.188833000042905, 39.590166999907183 ] } },
{ "type": "Feature", "properties": { "location_i": 2717, "location_1": "21COL001_WQX-COG588105-EFF", "location_n": "COG588105 Mid Valley Metro District Discharge Effluent", "loc_lat": 39.397406, "loc_long": -107.113486, "huc12": 14010004, "loc_type": "Municipal Sewage", "basin_ndx": 11 }, "geometry": { "type": "Point", "coordinates": [ -107.1134860003786, 39.397405999587249 ] } },
{ "type": "Feature", "properties": { "location_i": 2718, "location_1": "21COL001_WQX-COG588114-EFF", "location_n": "COG588114 Platte Canyon School District 1 WWTF Effluent", "loc_lat": 39.4186, "loc_long": -105.5314, "huc12": 10190002, "loc_type": "Municipal Sewage", "basin_ndx": 9 }, "geometry": { "type": "Point", "coordinates": [ -105.531399999610244, 39.418600000289814 ] } },
{ "type": "Feature", "properties": { "location_i": 2721, "location_1": "21COL001_WQX-COG589060-EFF", "location_n": "COG589060 Conifer Metro Dist WWTF Effluent Discharge", "loc_lat": 39.530278, "loc_long": -105.304444, "huc12": 10190002, "loc_type": "Municipal Sewage", "basin_ndx": 9 }, "geometry": { "type": "Point", "coordinates": [ -105.304443999790749, 39.530277999929808 ] } },
{ "type": "Feature", "properties": { "location_i": 2684, "location_1": "21COL001_WQX-CO0037311-EFF", "location_n": "Eagle River WSD CO0037311 Effluent", "loc_lat": 39.6542, "loc_long": -106.6269, "huc12": 14010003, "loc_type": "Municipal Sewage", "basin_ndx": 5 }, "geometry": { "type": "Point", "coordinates": [ -106.626900000334729, 39.654200000329809 ] } },
{ "type": "Feature", "properties": { "location_i": 2673, "location_1": "21COL001_WQX-CO0024431-EFF", "location_n": "Eagle River WSD Disch.P. CO0024431", "loc_lat": 39.635, "loc_long": -106.5296, "huc12": 14010003, "loc_type": "Municipal Sewage", "basin_ndx": 5 }, "geometry": { "type": "Point", "coordinates": [ -106.52960000003992, 39.634999999850152 ] } },
{ "type": "Feature", "properties": { "location_i": 2679, "location_1": "21COL001_WQX-CO0031429-EFF", "location_n": "Evergreen Metropolitan Dist. WWTF Discharge", "loc_lat": 39.637831, "loc_long": -105.315575, "huc12": 10190002, "loc_type": "Municipal Sewage", "basin_ndx": 9 }, "geometry": { "type": "Point", "coordinates": [ -105.315574999586545, 39.637831000000688 ] } },
{ "type": "Feature", "properties": { "location_i": 2702, "location_1": "21COL001_WQX-CO0048830-EFF", "location_n": "Gypsum WWTP Effluent", "loc_lat": 39.652, "loc_long": -106.962, "huc12": 14010003, "loc_type": "Municipal Sewage", "basin_ndx": 5 }, "geometry": { "type": "Point", "coordinates": [ -106.961999999600266, 39.651999999600378 ] } },
{ "type": "Feature", "properties": { "location_i": 2722, "location_1": "21COL001_WQX-COG589138-EFF", "location_n": "MT EVANS OUTDOOR LAB EFFLUENT", "loc_lat": 39.639736, "loc_long": -105.46136, "huc12": 10190002, "loc_type": "Municipal Sewage", "basin_ndx": 9 }, "geometry": { "type": "Point", "coordinates": [ -105.461360000063905, 39.639735999716663 ] } },
{ "type": "Feature", "properties": { "location_i": 2689, "location_1": "21COL001_WQX-CO0041432-EFF", "location_n": "Morrison", "loc_lat": 39.6541, "loc_long": -105.1796, "huc12": 10190002, "loc_type": "Municipal Sewage", "basin_ndx": 9 }, "geometry": { "type": "Point", "coordinates": [ -105.179600000039954, 39.654100000214896 ] } },
{ "type": "Feature", "properties": { "location_i": 2687, "location_1": "21COL001_WQX-CO0038547-EFF", "location_n": "Plum Creek Wastewater Authority Effluent Composite", "loc_lat": 39.4236, "loc_long": -104.9042, "huc12": 10190002, "loc_type": "Municipal Sewage", "basin_ndx": 9 }, "geometry": { "type": "Point", "coordinates": [ -104.90420000012989, 39.423599999740247 ] } },
{ "type": "Feature", "properties": { "location_i": 2664, "location_1": "21COL001_WQX-CO0021539-EFF", "location_n": "SWQC, station:BRE Upper Blue SD Farmers Korner WWTF Effleunt", "loc_lat": 39.567222, "loc_long": -106.051667, "huc12": 14010002, "loc_type": "Municipal Sewage", "basin_ndx": 12 }, "geometry": { "type": "Point", "coordinates": [ -106.05166699973222, 39.567222000295146 ] } },
{ "type": "Feature", "properties": { "location_i": 2666, "location_1": "21COL001_WQX-CO0021598-EFF", "location_n": "SWQC, station:CME, Copper Mountain Consolidated MD WWTF Effluent", "loc_lat": 39.508333, "loc_long": -106.141389, "huc12": 14010002, "loc_type": "Municipal Sewage", "basin_ndx": 12 }, "geometry": { "type": "Point", "coordinates": [ -106.141389000402, 39.508332999668255 ] } },
{ "type": "Feature", "properties": { "location_i": 2653, "location_1": "21COL001_WQX-CO0020451-EFF", "location_n": "SWQC, station:FRE Frisco WWTP Effluent Discharge", "loc_lat": 39.575278, "loc_long": -106.0875, "huc12": 14010002, "loc_type": "Municipal Sewage", "basin_ndx": 12 }, "geometry": { "type": "Point", "coordinates": [ -106.087500000124862, 39.575278000379456 ] } },
{ "type": "Feature", "properties": { "location_i": 2677, "location_1": "21COL001_WQX-CO0029955-EFF", "location_n": "SWQC, station:SRE Snake River WWTF", "loc_lat": 39.600556, "loc_long": -106.013889, "huc12": 14010002, "loc_type": "Municipal Sewage", "basin_ndx": 12 }, "geometry": { "type": "Point", "coordinates": [ -106.013888999577659, 39.600555999659719 ] } },
{ "type": "Feature", "properties": { "location_i": 2657, "location_1": "21COL001_WQX-CO0020826-EFF", "location_n": "SWQC, station:Silverthorne Dillon WWTF Effluent", "loc_lat": 39.6675, "loc_long": -106.086111, "huc12": 14010002, "loc_type": "Municipal Sewage", "basin_ndx": 12 }, "geometry": { "type": "Point", "coordinates": [ -106.086110999922653, 39.667500000324821 ] } },
{ "type": "Feature", "properties": { "location_i": 2681, "location_1": "21COL001_WQX-CO0036129-EFF", "location_n": "TinyTown WWTF Effluent", "loc_lat": 39.6061, "loc_long": -105.2272, "huc12": 10190002, "loc_type": "Municipal Sewage", "basin_ndx": 9 }, "geometry": { "type": "Point", "coordinates": [ -105.227199999880042, 39.606099999915102 ] } },
{ "type": "Feature", "properties": { "location_i": 2680, "location_1": "21COL001_WQX-CO0035769-EFF", "location_n": "Town of Alma WWTF", "loc_lat": 39.3, "loc_long": -106.0625, "huc12": 10190001, "loc_type": "Municipal Sewage", "basin_ndx": 8 }, "geometry": { "type": "Point", "coordinates": [ -106.06250000017485, 39.299999999800207 ] } },
{ "type": "Feature", "properties": { "location_i": 2671, "location_1": "21COL001_WQX-CO0023876-EFF", "location_n": "CO0023876 Arapahoe Basin Ski Area Effluent", "loc_lat": 39.641329, "loc_long": -105.876026, "huc12": 14010002, "loc_type": "Private Facility", "basin_ndx": 12 }, "geometry": { "type": "Point", "coordinates": [ -105.876026000199715, 39.641329000333144 ] } },
{ "type": "Feature", "properties": { "location_i": 2701, "location_1": "21COL001_WQX-CO0048372-EFF", "location_n": "CO0048372 Mountain View Villages WSD Effluent", "loc_lat": 39.2754, "loc_long": -106.3413, "huc12": 11020001, "loc_type": "Private Facility", "basin_ndx": 4 }, "geometry": { "type": "Point", "coordinates": [ -106.341300000394654, 39.275400000309844 ] } },
{ "type": "Feature", "properties": { "location_i": 2703, "location_1": "21COL001_WQX-COG588049-EFF", "location_n": "COG588049 Lazy Glen WWTF Effluent", "loc_lat": 39.343028, "loc_long": -107.005667, "huc12": 14010004, "loc_type": "Private Facility", "basin_ndx": 11 }, "geometry": { "type": "Point", "coordinates": [ -107.005666999732227, 39.343028000142169 ] } },
{ "type": "Feature", "properties": { "location_i": 2707, "location_1": "21COL001_WQX-COG588051-EFF", "location_n": "COG588051 Ranch at Roaring Fork WWTF Effluent", "loc_lat": 39.408889, "loc_long": -107.176667, "huc12": 14010004, "loc_type": "Private Facility", "basin_ndx": 11 }, "geometry": { "type": "Point", "coordinates": [ -107.176667000181851, 39.408889000327179 ] } },
{ "type": "Feature", "properties": { "location_i": 2709, "location_1": "21COL001_WQX-COG588066-EFF", "location_n": "COG588066 Riversbend Apartments WWTF Effluent", "loc_lat": 39.304167, "loc_long": -106.931944, "huc12": 14010004, "loc_type": "Private Facility", "basin_ndx": 11 }, "geometry": { "type": "Point", "coordinates": [ -106.931944000315355, 39.304167000406778 ] } },
{ "type": "Feature", "properties": { "location_i": 2712, "location_1": "21COL001_WQX-COG588074-EFF", "location_n": "COG588074 Blue Creek Ranch WWTF Effluent", "loc_lat": 39.399741, "loc_long": -107.153744, "huc12": 14010004, "loc_type": "Private Facility", "basin_ndx": 11 }, "geometry": { "type": "Point", "coordinates": [ -107.153743999785718, 39.399741000246991 ] } },
{ "type": "Feature", "properties": { "location_i": 2715, "location_1": "21COL001_WQX-COG588083-EFF", "location_n": "COG588083 Rock Gardens MHP and Campground WWTF Effluent", "loc_lat": 39.5545, "loc_long": -107.2927, "huc12": 14010001, "loc_type": "Private Facility", "basin_ndx": 3 }, "geometry": { "type": "Point", "coordinates": [ -107.292700000104901, 39.554499999975064 ] } },
{ "type": "Feature", "properties": { "location_i": 2720, "location_1": "21COL001_WQX-COG588122-EFF", "location_n": "COG588122 Lost Valley Ranch WWTF Effluent", "loc_lat": 39.1811, "loc_long": -105.3427, "huc12": 10190002, "loc_type": "Private Facility", "basin_ndx": 9 }, "geometry": { "type": "Point", "coordinates": [ -105.342700000404648, 39.181099999865182 ] } },
{ "type": "Feature", "properties": { "location_i": 2719, "location_1": "21COL001_WQX-COG588116-EFF", "location_n": "Roundup River Ranch WWTF Effluent", "loc_lat": 39.728, "loc_long": -107.023, "huc12": 14010001, "loc_type": "Private Facility", "basin_ndx": 3 }, "geometry": { "type": "Point", "coordinates": [ -107.022999999550279, 39.727999999700273 ] } }
]
}
