{
"type": "FeatureCollection",
"name": "Effluent",
"crs": { "type": "name", "properties": { "name": "urn:ogc:def:crs:OGC:1.3:CRS84" } },
"features": [
{ "type": "Feature", "properties": { "location_i": 2653, "location_1": "21COL001_WQX-CO0020451-EFF", "location_n": "SWQC, station:FRE Frisco WWTP Effluent Discharge", "loc_lat": 39.575278, "loc_long": -106.0875, "huc12": 14010002, "loc_type": "Effluent", "basin_ndx": 12 }, "geometry": { "type": "Point", "coordinates": [ -106.0875, 39.575278 ] } },
{ "type": "Feature", "properties": { "location_i": 2657, "location_1": "21COL001_WQX-CO0020826-EFF", "location_n": "SWQC, station:Silverthorne Dillon WWTF Effluent", "loc_lat": 39.6675, "loc_long": -106.086111, "huc12": 14010002, "loc_type": "Effluent", "basin_ndx": 12 }, "geometry": { "type": "Point", "coordinates": [ -106.086111, 39.6675 ] } },
{ "type": "Feature", "properties": { "location_i": 2661, "location_1": "21COL001_WQX-CO0021369-EFF", "location_n": "CO0021369 Eagle River WSD Effluent", "loc_lat": 39.640983, "loc_long": -106.3944, "huc12": 14010003, "loc_type": "Effluent", "basin_ndx": 5 }, "geometry": { "type": "Point", "coordinates": [ -106.3944, 39.640983 ] } },
{ "type": "Feature", "properties": { "location_i": 2663, "location_1": "21COL001_WQX-CO0021385-EFF", "location_n": "CO0021385 Town of Red Cliff WWTF Effluent Discharge", "loc_lat": 39.507339, "loc_long": -106.378306, "huc12": 14010003, "loc_type": "Effluent", "basin_ndx": 5 }, "geometry": { "type": "Point", "coordinates": [ -106.378306, 39.507339 ] } },
{ "type": "Feature", "properties": { "location_i": 2664, "location_1": "21COL001_WQX-CO0021539-EFF", "location_n": "SWQC, station:BRE Upper Blue SD Farmers Korner WWTF Effleunt", "loc_lat": 39.567222, "loc_long": -106.051667, "huc12": 14010002, "loc_type": "Effluent", "basin_ndx": 12 }, "geometry": { "type": "Point", "coordinates": [ -106.051667, 39.567222 ] } },
{ "type": "Feature", "properties": { "location_i": 2666, "location_1": "21COL001_WQX-CO0021598-EFF", "location_n": "SWQC, station:CME, Copper Mountain Consolidated MD WWTF Effluent", "loc_lat": 39.508333, "loc_long": -106.141389, "huc12": 14010002, "loc_type": "Effluent", "basin_ndx": 12 }, "geometry": { "type": "Point", "coordinates": [ -106.141389, 39.508333 ] } },
{ "type": "Feature", "properties": { "location_i": 2671, "location_1": "21COL001_WQX-CO0023876-EFF", "location_n": "CO0023876 Arapahoe Basin Ski Area Effluent", "loc_lat": 39.641329, "loc_long": -105.876026, "huc12": 14010002, "loc_type": "Effluent", "basin_ndx": 12 }, "geometry": { "type": "Point", "coordinates": [ -105.876026, 39.641329 ] } },
{ "type": "Feature", "properties": { "location_i": 2673, "location_1": "21COL001_WQX-CO0024431-EFF", "location_n": "Eagle River WSD Disch.P. CO0024431", "loc_lat": 39.635, "loc_long": -106.5296, "huc12": 14010003, "loc_type": "Effluent", "basin_ndx": 5 }, "geometry": { "type": "Point", "coordinates": [ -106.5296, 39.635 ] } },
{ "type": "Feature", "properties": { "location_i": 2677, "location_1": "21COL001_WQX-CO0029955-EFF", "location_n": "SWQC, station:SRE Snake River WWTF", "loc_lat": 39.600556, "loc_long": -106.013889, "huc12": 14010002, "loc_type": "Effluent", "basin_ndx": 12 }, "geometry": { "type": "Point", "coordinates": [ -106.013889, 39.600556 ] } },
{ "type": "Feature", "properties": { "location_i": 2684, "location_1": "21COL001_WQX-CO0037311-EFF", "location_n": "Eagle River WSD CO0037311 Effluent", "loc_lat": 39.6542, "loc_long": -106.6269, "huc12": 14010003, "loc_type": "Effluent", "basin_ndx": 5 }, "geometry": { "type": "Point", "coordinates": [ -106.6269, 39.6542 ] } },
{ "type": "Feature", "properties": { "location_i": 2696, "location_1": "21COL001_WQX-CO0045420-EFF", "location_n": "CO0045420 Iowa Hill WRF Effluent", "loc_lat": 39.503611, "loc_long": -106.048333, "huc12": 14010002, "loc_type": "Effluent", "basin_ndx": 12 }, "geometry": { "type": "Point", "coordinates": [ -106.048333, 39.503611 ] } },
{ "type": "Feature", "properties": { "location_i": 2699, "location_1": "21COL001_WQX-CO0048241-EFF", "location_n": "CO0048241 Eagle WWTF Effluent", "loc_lat": 39.64833, "loc_long": -106.844157, "huc12": 14010003, "loc_type": "Effluent", "basin_ndx": 5 }, "geometry": { "type": "Point", "coordinates": [ -106.844157, 39.64833 ] } },
{ "type": "Feature", "properties": { "location_i": 2701, "location_1": "21COL001_WQX-CO0048372-EFF", "location_n": "CO0048372 Mountain View Villages WSD Effluent", "loc_lat": 39.2754, "loc_long": -106.3413, "huc12": 11020001, "loc_type": "Effluent", "basin_ndx": 4 }, "geometry": { "type": "Point", "coordinates": [ -106.3413, 39.2754 ] } },
{ "type": "Feature", "properties": { "location_i": 2702, "location_1": "21COL001_WQX-CO0048830-EFF", "location_n": "Gypsum WWTP Effluent", "loc_lat": 39.652, "loc_long": -106.962, "huc12": 14010003, "loc_type": "Effluent", "basin_ndx": 5 }, "geometry": { "type": "Point", "coordinates": [ -106.962, 39.652 ] } },
{ "type": "Feature", "properties": { "location_i": 2708, "location_1": "21COL001_WQX-COG588063-EFF", "location_n": "COG588063 Basalt San Dist WWTF Effluent", "loc_lat": 39.367556, "loc_long": -107.046889, "huc12": 14010004, "loc_type": "Effluent", "basin_ndx": 11 }, "geometry": { "type": "Point", "coordinates": [ -107.046889, 39.367556 ] } },
{ "type": "Feature", "properties": { "location_i": 2711, "location_1": "21COL001_WQX-COG588070-EFF", "location_n": "COG588070 Two Rivers Metro District Effluent", "loc_lat": 39.6444, "loc_long": -107.0739, "huc12": 14010001, "loc_type": "Effluent", "basin_ndx": 3 }, "geometry": { "type": "Point", "coordinates": [ -107.0739, 39.6444 ] } },
{ "type": "Feature", "properties": { "location_i": 2717, "location_1": "21COL001_WQX-COG588105-EFF", "location_n": "COG588105 Mid Valley Metro District Discharge Effluent", "loc_lat": 39.397406, "loc_long": -107.113486, "huc12": 14010004, "loc_type": "Effluent", "basin_ndx": 11 }, "geometry": { "type": "Point", "coordinates": [ -107.113486, 39.397406 ] } },
{ "type": "Feature", "properties": { "location_i": 2719, "location_1": "21COL001_WQX-COG588116-EFF", "location_n": "Roundup River Ranch WWTF Effluent", "loc_lat": 39.728, "loc_long": -107.023, "huc12": 14010001, "loc_type": "Effluent", "basin_ndx": 3 }, "geometry": { "type": "Point", "coordinates": [ -107.023, 39.728 ] } },
{ "type": "Feature", "properties": { "location_i": 3045, "location_1": "USGS-393028106224000", "location_n": "RED CLIFF WASTEWATER TREATMENT PLANT PIPE", "loc_lat": 39.50777778, "loc_long": -106.3777778, "huc12": 14010003, "loc_type": "Effluent", "basin_ndx": 5 }, "geometry": { "type": "Point", "coordinates": [ -106.3777778, 39.507777780000026 ] } },
{ "type": "Feature", "properties": { "location_i": 3070, "location_1": "USGS-393754106311700", "location_n": "AVON WASTEWATER TREATMENT PLANT PIPE", "loc_lat": 39.63166667, "loc_long": -106.5213889, "huc12": 14010003, "loc_type": "Effluent", "basin_ndx": 5 }, "geometry": { "type": "Point", "coordinates": [ -106.521388899999977, 39.631666670000072 ] } },
{ "type": "Feature", "properties": { "location_i": 3115, "location_1": "USGS-393909106372500", "location_n": "EDWARDS WASTEWATER TREATMENT PLANT PIPE", "loc_lat": 39.6525, "loc_long": -106.6236111, "huc12": 14010003, "loc_type": "Effluent", "basin_ndx": 5 }, "geometry": { "type": "Point", "coordinates": [ -106.623611099999948, 39.6525 ] } }
]
}
